$GPGGA,121456.00,5241.80272,N,00123.75631,W,1,08,1.29,137.9,M,47.4,M,,*49


Speed: 0.2m/s

Nmea string is not valid



$GPGGA,121457.00,5241.80260,N,00123.75633,W,1,08,1.29,137.4,M,47.4,M,,*44


Speed: 0.0m/s

Nmea string is not valid



$GPGGA,121458.00,5241.80245,N,00123.75643,W,1,08,1.29,136.6,M,47.4,M,,*48


Speed: 0.4m/s

Nmea string is not valid



$GPGGA,121459.00,5241.80245,N,00123.75640,W,1,08,1.29,136.7,M,47.4,M,,*4B


Speed: 0.0m/s

Nmea string is not valid



$GPGGA,121500.00,5241.80253,N,00123.75646,W,1,08,1.29,136.8,M,47.4,M,,*48


Speed: 0.4m/s

Nmea string is not valid



$GPGGA,121501.00,5241.80259,N,00123.75648,W,1,08,1.29,136.9,M,47.4,M,,*4C


Speed: 0.0m/s

Nmea string is not valid



$GPGGA,121502.00,5241.80271,N,00123.75632,W,1,08,1.29,137.5,M,47.4,M,,*45


Speed: 0.2m/s

Nmea string is not valid



$GPGGA,121503.00,5241.80264,N,00123.75638,W,1,08,1.29,137.0,M,47.4,M,,*4F


Speed: 0.1m/s

Nmea string is not valid



$GPGGA,121504.00,5241.80267,N,00123.75637,W,1,08,1.29,136.9,M,47.4,M,,*4C


Speed: 0.0m/s

Nmea string is not valid



$GPGGA,121505.00,5241.80267,N,00123.75642,W,1,08,1.29,136.7,M,47.4,M,,*41


Speed: 0.0m/s

Nmea string is not valid



$GPGGA,121506.00,5241.80275,N,00123.75649,W,1,08,1.29,136.8,M,47.4,M,,*45


Speed: 0.1m/s

Nmea string is not valid



$GPGGA,121507.00,5241.80290,N,00123.75645,W,1,08,1.29,137.2,M,47.4,M,,*48


Speed: 0.0m/s

Nmea string is not valid



$GPGGA,121508.00,5241.80291,N,00123.75661,W,1,08,1.29,136.8,M,47.4,M,,*4B


Speed: 0.2m/s

Nmea string is not valid



$GPGGA,121509.00,5241.80294,N,00123.75673,W,1,08,1.29,136.5,M,47.4,M,,*41


Speed: 0.1m/s

Nmea string is not valid



$GPGGA,121510.00,5241.80294,N,00123.75670,W,1,08,1.29,136.4,M,47.4,M,,*4B


Speed: 0.0m/s

Nmea string is not valid



$GPGGA,121511.00,5241.80304,N,00123.75670,W,1,08,1.29,136.8,M,47.4,M,,*4E


Speed: 1.7m/s

Nmea string is not valid



$GPGGA,121512.00,5241.80314,N,00123.75671,W,1,08,1.29,137.2,M,47.4,M,,*46


Speed: 0.0m/s

Nmea string is not valid



$GPGGA,121513.00,5241.80312,N,00123.75673,W,1,08,1.29,137.0,M,47.4,M,,*41


Speed: 0.0m/s

Nmea string is not valid



$GPGGA,121514.00,5241.80307,N,00123.75686,W,1,08,1.29,136.4,M,47.4,M,,*4D


Speed: 0.1m/s

Nmea string is not valid



Nmea string is not valid



$GPGGA,121515.00,5241.80308,N,00123.75688,W,1,08,1.29,136.4,M,47.4,M,,*4D


Speed: 0.0m/s

Nmea string is not valid



Nmea string is not valid



$GPGGA,121516.00,5241.80312,N,00123.75696,W,1,08,1.29,136.4,M,47.4,M,,*4A


Speed: 0.1m/s

Nmea string is not valid



Nmea string is not valid



$GPGGA,121517.00,5241.80319,N,00123.75698,W,1,08,1.29,136.6,M,47.4,M,,*4C


Speed: 0.0m/s

Nmea string is not valid



Nmea string is not valid



$GPGGA,121518.00,5241.80319,N,00123.75696,W,1,08,1.29,136.6,M,47.4,M,,*4D


Speed: 0.0m/s

Nmea string is not valid



Nmea string is not valid



$GPGGA,121519.00,5241.80322,N,00123.75698,W,1,08,1.29,136.7,M,47.4,M,,*4B


Speed: 0.0m/s

Nmea string is not valid



Nmea string is not valid



Nmea string is not valid



Nmea string is not valid



Nmea string is not valid



Nmea string is not valid



Nmea string is not valid



Nmea string is not valid



Nmea string is not valid



Nmea string is not valid



Nmea string is not valid



Nmea string is not valid



Nmea string is not valid



Nmea string is not valid



Nmea string is not valid



Nmea string is not valid



Nmea string is not valid



Nmea string is not valid



Nmea string is not valid



Nmea string is not valid



Nmea string is not valid



Nmea string is not valid



Nmea string is not valid



Nmea string is not valid



Nmea string is not valid



$GPGGA,121532.00,5241.80332,N,00123.75704,W,1,08,1.29,137.8,M,47.4,M,,*49


Speed: 0.1m/s

Nmea string is not valid



Nmea string is not valid



$GPGGA,121533.00,5241.80343,N,00123.75730,W,1,08,1.29,138.1,M,47.4,M,,*4F


Speed: 0.3m/s

Nmea string is not valid



Nmea string is not valid



Nmea string is not valid



Nmea string is not valid



Nmea string is not valid



Nmea string is not valid



Nmea string is not valid



Nmea string is not valid



Nmea string is not valid



Nmea string is not valid



Nmea string is not valid



Nmea string is not valid



Nmea string is not valid



Nmea string is not valid



Nmea string is not valid



Nmea string is not valid



Nmea string is not valid



Nmea string is not valid



Nmea string is not valid



Nmea string is not valid



Nmea string is not valid



Nmea string is not valid



Nmea string is not valid



Nmea string is not valid



Nmea string is not valid



Nmea string is not valid



Nmea string is not valid



Nmea string is not valid



Nmea string is not valid



Nmea string is not valid



Nmea string is not valid


Nmea string is not valid

Nmea string is not valid


Nmea string is not valid
Nmea string is not valid


Nmea string is not valid

Nmea string is not valid


Nmea string is not valid

Nmea string is not valid


Nmea string is not valid

Nmea string is not valid


Nmea string is not valid


Nmea string is not valid


Nmea string is not valid
Nmea string is not valid


Nmea string is not valid










Nmea string is not valid


Nmea string is not valid


Nmea string is not valid


Nmea string is not valid













Nmea string is not valid

Nmea string is not valid


Nmea string is not valid

Nmea string is not valid


Nmea string is not valid

Nmea string is not valid



Speed: 1.7m/s





Speed: 0.0m/s



Nmea string is not valid


$GPGGA,121610.00,5241.80251,N,00123.75749,W,1,08,1.30,139.6,M,47.4,M,,*4F

Speed: 0.0m/s

Nmea string is not valid




Speed: 0.4m/s



$GPGGA,121612.00,5241.80236,N,00123.75751,W,1,08,1.30,139.3,M,47.4,M,,*40

Speed: 0.1m/s

Nmea string is not valid


Nmea string is not valid

$GPGGA,121614.00,5241.80241,N,00123.75757,W,1,08,1.30,139.6,M,47.4,M,,*45



Nmea string is not valid

$GPGGA,121615.00,5241.80241,N,00123.75753,W,1,08,1.30,139.8,M,47.4,M,,*4E

Speed: 0.0m/s

Nmea string is not valid






Nmea string is not valid


Nmea string is not valid



Nmea string is not valid



Nmea string is not valid



Nmea string is not valid


$GPGGA,121622.00,5241.80234,N,00123.75750,W,1,08,1.30,139.5,M,47.4,M,,*46

Speed: 0.0m/s
Nmea string is not valid



$GPGGA,121623.00,5241.80233,N,00123.75749,W,1,07,1.49,139.6,M,47.4,M,,*4A

Speed: 0.0m/s



Nmea string is not valid
$GPGGA,121625.00,5241.80241,N,00123.75756,W,1,07,1.49,139.6,M,47.4,M,,*47

Speed: 0.0m/s

Nmea string is not valid
$GPGGA,121626.00,5241.80240,N,00123.75757,W,1,07,1.49,139.5,M,47.4,M,,*47

Speed: 0.0m/s
Nmea string is not valid



Nmea string is not valid


$GPGGA,121628.00,5241.80245,N,00123.75755,W,1,07,1.49,139.6,M,47.4,M,,*4D

Speed: 0.0m/s


Speed: 0.4m/s

Nmea string is not valid

Speed: 0.4m/s


Nmea string is not valid


Speed: 0.4m/s
Nmea string is not valid

$GPGGA,121633.00,5241.80264,N,00123.75742,W,1,07,1.49,139.7,M,47.4,M,,*43

Speed: 0.2m/s
Nmea string is not valid


$GPGGA,121634.00,5241.80276,N,00123.75749,W,1,07,1.49,139.8,M,47.4,M,,*43

Speed: 0.1m/s





Nmea string is not valid







Nmea string is not valid



Nmea string is not valid



Nmea string is not valid


$GPGGA,121641.00,5241.80274,N,00123.75706,W,1,08,1.49,139.0,M,47.4,M,,*4F

Speed: 0.0m/s

Nmea string is not valid




$GPGGA,121643.00,5241.80269,N,00123.75704,W,1,08,1.30,138.5,M,47.4,M,,*49

Speed: 0.1m/s


$GPGGA,121644.00,5241.80259,N,00123.75713,W,1,08,1.30,137.7,M,47.4,M,,*46

Nmea string is not valid


$GPGGA,121645.00,5241.80246,N,00123.75720,W,1,08,1.30,136.9,M,47.4,M,,*46

Speed: 0.4m/s
Nmea string is not valid


Nmea string is not valid







Nmea string is not valid





$GPGGA,121650.00,5241.80223,N,00123.75737,W,1,08,1.30,134.8,M,47.4,M,,*44

Speed: 0.3m/s
Nmea string is not valid



$GPGGA,121651.00,5241.80219,N,00123.75752,W,1,08,1.30,134.4,M,47.4,M,,*43

Speed: 0.2m/s

$GPGGA,121652.00,5241.80220,N,00123.75751,W,1,08,1.30,134.4,M,47.4,M,,*49


Speed: 0.0m/s
Nmea string is not valid


$GPGGA,121653.00,5241.80212,N,00123.75757,W,1,08,1.30,134.1,M,47.4,M,,*4A

Speed: 0.1m/s
Nmea string is not valid


$GPGGA,121654.00,5241.80211,N,00123.75755,W,1,08,1.30,134.1,M,47.4,M,,*4C

Speed: 0.0m/s

Nmea string is not valid











Nmea string is not valid



Nmea string is not valid


$GPGGA,121659.00,5241.80215,N,00123.75699,W,1,08,1.30,134.7,M,47.4,M,,*42

Speed: 0.0m/s
Nmea string is not valid






$GPGGA,121701.00,5241.80221,N,00123.75700,W,1,08,1.30,135.2,M,47.4,M,,*4C

Speed: 0.1m/s
Nmea string is not valid


$GPGGA,121702.00,5241.80222,N,00123.75695,W,1,08,1.30,135.3,M,47.4,M,,*40


Nmea string is not valid





Nmea string is not valid


$GPGGA,121705.00,5241.80225,N,00123.75726,W,1,08,1.30,135.0,M,47.4,M,,*4A

Speed: 0.1m/s
Nmea string is not valid






$GPGGA,121707.00,5241.80229,N,00123.75717,W,1,08,1.30,135.2,M,47.4,M,,*44

Speed: 0.1m/s
Nmea string is not valid


Nmea string is not valid


$GPGGA,121708.00,5241.80238,N,00123.75717,W,1,08,1.30,135.5,M,47.4,M,,*4C

Speed: 0.0m/s

Nmea string is not valid


Nmea string is not valid


$GPGGA,121709.00,5241.80241,N,00123.75709,W,1,08,1.30,135.7,M,47.4,M,,*4E


Speed: 0.1m/s
Nmea string is not valid



Nmea string is not valid


$GPGGA,121710.00,5241.80249,N,00123.75733,W,1,08,1.30,135.8,M,47.4,M,,*48

Speed: 0.3m/s
Nmea string is not valid


Nmea string is not valid


Nmea string is not valid


Nmea string is not valid













Nmea string is not valid


Nmea string is not valid


Nmea string is not valid

Nmea string is not valid


Nmea string is not valid

Nmea string is not valid








Nmea string is not valid


Nmea string is not valid


$GPGGA,121723.00,5241.80359,N,00123.75656,W,1,08,1.30,141.8,M,47.4,M,,*49

Speed: 2.7m/s
Nmea string is not valid


Nmea string is not valid










Nmea string is not valid


Nmea string is not valid


Nmea string is not valid

Nmea string is not valid


Nmea string is not valid


Nmea string is not valid


Nmea string is not valid
















Nmea string is not valid





Nmea string is not valid


Nmea string is not valid


Nmea string is not valid

Nmea string is not valid


Nmea string is not valid


Nmea string is not valid


Nmea string is not valid

Nmea string is not valid


Nmea string is not valid


Nmea string is not valid


Nmea string is not valid


Nmea string is not valid


Nmea string is not valid


Nmea string is not valid


Nmea string is not valid


Nmea string is not valid


Nmea string is not valid

Nmea string is not valid








Nmea string is not valid


Nmea string is not valid


Nmea string is not valid





Nmea string is not valid




Nmea string is not valid










Nmea string is not valid


Nmea string is not valid


Nmea string is not valid







Nmea string is not valid





Speed: 0.0m/s
Nmea string is not valid
Nmea string is not valid


$GPGGA,121804.00,5241.80275,N,00123.75990,W,1,09,0.98,136.6,M,47.4,M,,*45

Speed: 0.1m/s
Nmea string is not valid


Nmea string is not valid


$GPGGA,121805.00,5241.80280,N,00123.75985,W,1,09,0.98,136.7,M,47.4,M,,*4B

Speed: 0.1m/s
Nmea string is not valid


Nmea string is not valid


Nmea string is not valid


$GPGGA,121807.00,5241.80295,N,00123.76011,W,1,09,0.98,136.6,M,47.4,M,,*4B

Speed: 0.1m/s
Nmea string is not valid



Nmea string is not valid


$GPGGA,121809.00,5241.80308,N,00123.76014,W,1,09,0.98,136.4,M,47.4,M,,*47


Nmea string is not valid





$GPGGA,121811.00,5241.80321,N,00123.76015,W,1,09,0.98,136.5,M,47.4,M,,*45


Speed: 0.0m/s
Nmea string is not valid


$GPGGA,121812.00,5241.80329,N,00123.76034,W,1,09,0.98,136.4,M,47.4,M,,*4C


Speed: 0.2m/s
Nmea string is not valid



Speed: 0.3m/s


Nmea string is not valid

Nmea string is not valid


$GPGGA,121816.00,5241.80329,N,00123.75956,W,1,09,0.98,137.0,M,47.4,M,,*43

Speed: 0.4m/s

Nmea string is not valid

Speed: 0.0m/s



$GPGGA,121819.00,5241.80336,N,00123.75918,W,1,09,0.98,137.3,M,47.4,M,,*4B

Speed: 0.1m/s
Nmea string is not valid
$GPGGA,121820.00,5241.80340,N,00123.75916,W,1,09,0.98,137.3,M,47.4,M,,*4E








Nmea string is not valid

$GPGGA,121823.00,5241.80352,N,00123.75877,W,1,09,0.98,137.9,M,47.4,M,,*42

Speed: 0.1m/s



$GPGGA,121824.00,5241.80360,N,00123.75874,W,1,08,1.05,138.1,M,47.4,M,,*44

Nmea string is not valid



Nmea string is not valid


$GPGGA,121826.00,5241.80376,N,00123.75864,W,1,09,0.98,138.3,M,47.4,M,,*46

Speed: 0.0m/s

Nmea string is not valid





$GPGGA,121828.00,5241.80397,N,00123.75879,W,1,09,0.98,138.4,M,47.4,M,,*4C






$GPGGA,121830.00,5241.80421,N,00123.75904,W,1,09,0.98,138.5,M,47.4,M,,*45

Speed: 0.4m/s
Nmea string is not valid

Nmea string is not valid





Speed: 0.4m/s


Nmea string is not valid


$GPGGA,121836.00,5241.80503,N,00123.76059,W,1,09,0.98,138.5,M,47.4,M,,*40

Speed: 0.1m/s

Nmea string is not valid
$GPGGA,121837.00,5241.80501,N,00123.76046,W,1,09,0.98,138.5,M,47.4,M,,*4D

Speed: 0.2m/s






Speed: 0.2m/s



$GPGGA,121840.00,5241.80510,N,00123.76031,W,1,09,0.98,138.9,M,47.4,M,,*41

Speed: 0.0m/s
Nmea string is not valid




$GPGGA,121842.00,5241.80514,N,00123.76042,W,1,08,1.08,138.9,M,47.4,M,,*4A

Speed: 0.0m/s






$GPGGA,121844.00,5241.80523,N,00123.76041,W,1,08,1.08,139.0,M,47.4,M,,*43



Nmea string is not valid


$GPGGA,121845.00,5241.80523,N,00123.76033,W,1,08,1.08,139.1,M,47.4,M,,*46


Speed: 0.1m/s
Nmea string is not valid


$GPGGA,121846.00,5241.80521,N,00123.76047,W,1,08,1.08,138.7,M,47.4,M,,*43


Speed: 0.1m/s
Nmea string is not valid


$GPGGA,121847.00,5241.80521,N,00123.76050,W,1,08,1.08,138.6,M,47.4,M,,*45

Speed: 0.0m/s

Nmea string is not valid



Nmea string is not valid

$GPGGA,121849.00,5241.80514,N,00123.76060,W,1,08,1.08,137.9,M,47.4,M,,*4E


Speed: 0.0m/s
Nmea string is not valid

$GPGGA,121850.00,5241.80516,N,00123.76046,W,1,08,1.08,138.0,M,47.4,M,,*46

Speed: 0.2m/s
Nmea string is not valid


$GPGGA,121851.00,5241.80516,N,00123.76037,W,1,08,1.08,137.8,M,47.4,M,,*46

Speed: 0.1m/s



Speed: 0.0m/s




Nmea string is not valid


$GPGGA,121854.00,5241.80494,N,00123.75996,W,1,09,0.98,137.9,M,47.4,M,,*41




Speed: 0.0m/s







Nmea string is not valid

Nmea string is not valid


$GPGGA,121859.00,5241.80492,N,00123.75928,W,1,09,0.98,138.6,M,47.4,M,,*4F

Speed: 0.2m/s
Nmea string is not valid


Nmea string is not valid



Speed: 1.3m/s

Nmea string is not valid


Nmea string is not valid


$GPGGA,121901.00,5241.80501,N,00123.75904,W,1,09,0.98,139.0,M,47.4,M,,*41

Speed: 0.1m/s








Nmea string is not valid


Nmea string is not valid


Nmea string is not valid












Nmea string is not valid

Nmea string is not valid


Nmea string is not valid


Nmea string is not valid

















Nmea string is not valid


Nmea string is not valid



Nmea string is not valid


Nmea string is not valid


$GPGGA,121918.00,5241.80548,N,00123.75873,W,1,09,0.98,139.8,M,47.4,M,,*4D

Speed: 0.8m/s
Nmea string is not valid


Nmea string is not valid


Nmea string is not valid


Nmea string is not valid


Nmea string is not valid


Nmea string is not valid

















Nmea string is not valid


Nmea string is not valid


Nmea string is not valid


Nmea string is not valid


Nmea string is not valid


Nmea string is not valid


Nmea string is not valid


Nmea string is not valid


Nmea string is not valid


Nmea string is not valid


Nmea string is not valid



























Nmea string is not valid


Nmea string is not valid


Nmea string is not valid




Nmea string is not valid


Nmea string is not valid


Nmea string is not valid


Nmea string is not valid


Nmea string is not valid


Nmea string is not valid


Nmea string is not valid


Nmea string is not valid


Nmea string is not valid


Nmea string is not valid











Nmea string is not valid


Nmea string is not valid


$GPGGA,121955.00,5241.80478,N,00123.75905,W,1,09,0.98,137.9,M,47.4,M,,*49

Speed: 1.3m/s
Nmea string is not valid


Nmea string is not valid


$GPGGA,121956.00,5241.80460,N,00123.75913,W,1,09,0.98,137.6,M,47.4,M,,*4B

Speed: 0.1m/s


$GPGGA,121957.00,5241.80460,N,00123.75915,W,1,09,0.98,137.4,M,47.4,M,,*4E

Speed: 0.0m/s

Nmea string is not valid
$GPGGA,121958.00,5241.80462,N,00123.75921,W,1,09,0.98,137.4,M,47.4,M,,*44

Speed: 0.1m/s

$GPGGA,121959.00,5241.80462,N,00123.75939,W,1,09,0.98,137.1,M,47.4,M,,*49

Speed: 0.2m/s

Nmea string is not valid




$GPGGA,122001.00,5241.80459,N,00123.75956,W,1,09,0.98,136.6,M,47.4,M,,*49

Speed: 0.0m/s
Nmea string is not valid


$GPGGA,122002.00,5241.80457,N,00123.75958,W,1,09,0.98,136.5,M,47.4,M,,*49

Speed: 0.0m/s




$GPGGA,122004.00,5241.80456,N,00123.75939,W,1,09,0.98,136.9,M,47.4,M,,*45

Speed: 0.1m/s

Nmea string is not valid





$GPGGA,122006.00,5241.80453,N,00123.75944,W,1,09,0.98,136.5,M,47.4,M,,*44

Speed: 0.1m/s



Speed: 0.0m/s





Speed: 0.1m/s

$GPGGA,122010.00,5241.80453,N,00123.75932,W,1,09,0.98,136.7,M,47.4,M,,*40

Speed: 0.0m/s




Speed: 0.1m/s





Speed: 0.0m/s



Nmea string is not valid


$GPGGA,122016.00,5241.80437,N,00123.75981,W,1,09,0.98,135.5,M,47.4,M,,*4D

Speed: 0.2m/s


$GPGGA,122017.00,5241.80434,N,00123.75974,W,1,09,0.98,135.5,M,47.4,M,,*45

Speed: 0.1m/s
Nmea string is not valid



Nmea string is not valid


$GPGGA,122019.00,5241.80430,N,00123.75972,W,1,09,0.98,135.7,M,47.4,M,,*4B


Speed: 0.0m/s
Nmea string is not valid

Nmea string is not valid



Nmea string is not valid


Nmea string is not valid

$GPGGA,122023.00,5241.80396,N,00123.75989,W,1,09,0.98,134.7,M,47.4,M,,*4C


Speed: 0.1m/s
Nmea string is not valid

$GPGGA,122024.00,5241.80393,N,00123.75992,W,1,09,0.98,134.7,M,47.4,M,,*44


Speed: 0.8m/s
Nmea string is not valid






$GPGGA,122026.00,5241.80382,N,00123.75986,W,1,08,1.08,134.6,M,47.4,M,,*4B

Speed: 0.1m/s

$GPGGA,122027.00,5241.80385,N,00123.75982,W,1,08,1.08,134.8,M,47.4,M,,*47








Nmea string is not valid

$GPGGA,122029.00,5241.80375,N,00123.75986,W,1,08,1.08,134.6,M,47.4,M,,*4C

Speed: 0.0m/s
Nmea string is not valid







Nmea string is not valid

Speed: 0.0m/s









$GPGGA,122035.00,5241.80343,N,00123.75948,W,1,09,0.98,134.4,M,47.4,M,,*4D


Nmea string is not valid


$GPGGA,122036.00,5241.80338,N,00123.75955,W,1,08,1.32,134.2,M,47.4,M,,*48

Speed: 0.1m/s
Nmea string is not valid


$GPGGA,122037.00,5241.80337,N,00123.75953,W,1,08,1.32,134.2,M,47.4,M,,*40

Speed: 0.0m/s




Nmea string is not valid


$GPGGA,122039.00,5241.80333,N,00123.75939,W,1,08,1.32,134.3,M,47.4,M,,*47

Speed: 0.1m/s

Nmea string is not valid
$GPGGA,122040.00,5241.80331,N,00123.75932,W,1,08,1.32,134.4,M,47.4,M,,*47

Speed: 0.1m/s


$GPGGA,122041.00,5241.80328,N,00123.75931,W,1,09,0.98,134.3,M,47.4,M,,*4A

Speed: 0.0m/s

Nmea string is not valid






$GPGGA,122044.00,5241.80307,N,00123.75944,W,1,09,0.98,133.7,M,47.4,M,,*43




Nmea string is not valid


$GPGGA,122046.00,5241.80311,N,00123.75929,W,1,09,0.98,134.2,M,47.4,M,,*4F



Nmea string is not valid


$GPGGA,122047.00,5241.80304,N,00123.75922,W,1,09,0.98,134.2,M,47.4,M,,*41

Speed: 0.1m/s
Nmea string is not valid


$GPGGA,122048.00,5241.80305,N,00123.75908,W,1,09,0.98,134.5,M,47.4,M,,*40

Speed: 0.2m/s




Nmea string is not valid

$GPGGA,122050.00,5241.80289,N,00123.75910,W,1,09,0.98,134.2,M,47.4,M,,*42

Speed: 1.7m/s


Nmea string is not valid


$GPGGA,122051.00,5241.80281,N,00123.75916,W,1,09,0.98,134.0,M,47.4,M,,*4F

Nmea string is not valid
Nmea string is not valid


$GPGGA,122052.00,5241.80276,N,00123.75922,W,1,09,0.98,133.8,M,47.4,M,,*4C

Speed: 0.1m/s




Speed: 0.0m/s

Nmea string is not valid








Nmea string is not valid


Nmea string is not valid


Nmea string is not valid


Nmea string is not valid


Nmea string is not valid


Nmea string is not valid


Nmea string is not valid


Nmea string is not valid


Nmea string is not valid



Nmea string is not valid










Nmea string is not valid


Nmea string is not valid




Nmea string is not valid

















Nmea string is not valid


Nmea string is not valid


Nmea string is not valid


Nmea string is not valid



Nmea string is not valid


Nmea string is not valid




Nmea string is not valid


Nmea string is not valid








Nmea string is not valid


Nmea string is not valid


Nmea string is not valid


Nmea string is not valid


Nmea string is not valid


Nmea string is not valid


Nmea string is not valid



















Nmea string is not valid


Nmea string is not valid









Nmea string is not valid









Nmea string is not valid


Nmea string is not valid

























$GPGGA,122147.00,5241.80492,N,00123.75797,W,1,08,1.33,140.0,M,47.4,M,,*48

Speed: 0.0m/s








Nmea string is not valid


Speed: 0.1m/s

Nmea string is not valid



Nmea string is not valid


$GPGGA,122152.00,5241.80468,N,00123.75786,W,1,09,0.97,140.1,M,47.4,M,,*46



Nmea string is not valid




Nmea string is not valid


$GPGGA,122154.00,5241.80432,N,00123.75764,W,1,09,0.97,139.9,M,47.4,M,,*45

Speed: 0.2m/s
Nmea string is not valid



Nmea string is not valid


$GPGGA,122156.00,5241.80411,N,00123.75773,W,1,08,1.08,139.4,M,47.4,M,,*4B

Speed: 0.0m/s







Speed: 0.0m/s












Speed: 0.4m/s


Nmea string is not valid
$GPGGA,122204.00,5241.80332,N,00123.75641,W,1,08,1.33,140.7,M,47.4,M,,*4C

Speed: 0.6m/s
Nmea string is not valid

Speed: 0.2m/s

Nmea string is not valid



Nmea string is not valid

$GPGGA,122207.00,5241.80299,N,00123.75592,W,1,08,1.33,141.5,M,47.4,M,,*41

Speed: 0.1m/s








Nmea string is not valid


$GPGGA,122211.00,5241.80292,N,00123.75560,W,1,08,1.33,141.9,M,47.4,M,,*4C



Nmea string is not valid


$GPGGA,122212.00,5241.80296,N,00123.75576,W,1,08,1.33,141.6,M,47.4,M,,*43



Nmea string is not valid




Nmea string is not valid


Speed: 0.1m/s














$GPGGA,122220.00,5241.80284,N,00123.75560,W,1,08,1.33,141.5,M,47.4,M,,*45



$GPGGA,122221.00,5241.80285,N,00123.75564,W,1,08,1.33,141.4,M,47.4,M,,*40






Nmea string is not valid

$GPGGA,122223.00,5241.80287,N,00123.75568,W,1,08,1.33,141.2,M,47.4,M,,*4A


Speed: 0.1m/s
Nmea string is not valid






Speed: 1.7m/s

$GPGGA,122226.00,5241.80305,N,00123.75577,W,1,08,1.33,141.0,M,47.4,M,,*48



Nmea string is not valid

$GPGGA,122227.00,5241.80306,N,00123.75567,W,1,08,1.33,141.3,M,47.4,M,,*48


Nmea string is not valid

$GPGGA,122228.00,5241.80306,N,00123.75567,W,1,08,1.33,141.2,M,47.4,M,,*46

Speed: 0.0m/s



$GPGGA,122229.00,5241.80304,N,00123.75562,W,1,08,1.33,141.1,M,47.4,M,,*43

Speed: 0.0m/s
Nmea string is not valid


$GPGGA,122230.00,5241.80311,N,00123.75555,W,1,07,1.40,141.2,M,47.4,M,,*43

Speed: 0.1m/s

Nmea string is not valid

$GPGGA,122231.00,5241.80322,N,00123.75553,W,1,07,1.40,141.4,M,47.4,M,,*42



Nmea string is not valid


$GPGGA,122232.00,5241.80332,N,00123.75565,W,1,07,1.40,141.1,M,47.4,M,,*40

Speed: 0.1m/s



Speed: 0.5m/s





Nmea string is not valid




Nmea string is not valid





$GPGGA,122237.00,5241.80365,N,00123.75600,W,1,07,1.40,140.7,M,47.4,M,,*40

Speed: 0.1m/s


$GPGGA,122238.00,5241.80371,N,00123.75611,W,1,08,1.34,140.5,M,47.4,M,,*44

Speed: 0.1m/s




$GPGGA,122239.00,5241.80364,N,00123.75602,W,1,08,1.34,140.6,M,47.4,M,,*40

Speed: 0.1m/s




Speed: 0.1m/s
Nmea string is not valid


$GPGGA,122241.00,5241.80349,N,00123.75597,W,1,08,1.34,140.6,M,47.4,M,,*4F

Speed: 0.1m/s

Nmea string is not valid
$GPGGA,122242.00,5241.80355,N,00123.75608,W,1,08,1.34,140.3,M,47.4,M,,*41

Speed: 0.1m/s










Nmea string is not valid


$GPGGA,122245.00,5241.80363,N,00123.75623,W,1,08,1.34,140.0,M,47.4,M,,*49

Speed: 0.1m/s

Nmea string is not valid


Nmea string is not valid


$GPGGA,122246.00,5241.80363,N,00123.75618,W,1,08,1.34,140.3,M,47.4,M,,*41


Speed: 0.1m/s
Nmea string is not valid





Speed: 0.0m/s

Nmea string is not valid




Nmea string is not valid


Nmea string is not valid



Nmea string is not valid











